"refID","status","method","arrangement","samples","effort_ha","dbh_cutoff","SiteCode","lat","long","lat_municipio","long_municipio","lat_correct","long_correct","confiabilidade","Unidade_de_conservacao","Unidade_de_conservacao1","UC_area_ha","year_data","year","state","status_diagnostico","S","N","ordem","tif.name"
161,"yes","parcelas","contiguous/systematic","52",2.08,"DBH>=5.0cm","MGlavr2",-21.221389,-44.963056,-21.265411,-45.0392764,NA,NA,"precisa","universities and research centers","campus",600,NA,2002,"MG","ok NAB digitado! Checado",174,3120,201,"/home/danilo/Documentos/Doutorado/artigo_mestrado/1A.P_MOVER/dados_brutos/ref161_MG_201.tif"
220,"yes","parcelas","contiguous","126",5.04,"DBH>=5.0cm","MGlavr4",-21.227778,-44.963889,-21.265411,-45.039276,-21.228781,-44.967024,"precisa","universities and research centers","campus",600,"1988",1994,"MG","ok NAB digitado! Checado",134,6507,295,"/home/danilo/Documentos/Doutorado/artigo_mestrado/1A.P_MOVER/dados_brutos/ref220_MG_295.tif"
224,"yes","parcelas","contiguous","100",1,"PBH>=15.0cm","MGvico1",-20.755278,-42.866111,-20.7404998,-42.8862695,-20.759403,-42.866807,"precisa","universities and research centers","campus",1611.3,NA,2004,"MG","ok N digitado! Checado",94,1826,307,"/home/danilo/Documentos/Doutorado/artigo_mestrado/1A.P_MOVER/dados_brutos/ref224_MG_307.tif"
257,"yes","parcelas","contiguous","100",1,"PBH>=15.0cm","MGvico16",-20.75,-42.85,-20.7404998,-42.8862695,-20.754487,-42.868315,"exata","universities and research centers","campus",1611.3,NA,2000,"MG","ok NAB digitado! Checado",91,1653,348,"/home/danilo/Documentos/Doutorado/artigo_mestrado/1A.P_MOVER/dados_brutos/ref257_MG_348.tif"
1048,"yes","parcelas","contiguous","128",1.28,"PBH>=15.0cm","SPjabo1",-21.247891,-48.268177,-21.218043,-48.287932,-21.247891,-48.268177,"precisa","universities and research centers","campus",829,"1986",1989,"SP","ok NAB digitado! Checado",76,1694,1583,"/home/danilo/Documentos/Doutorado/artigo_mestrado/1A.P_MOVER/dados_brutos/ref1048_SP_1583.tif"
601,"yes","parcelas","contiguous","72",1.44,"DBH>=5.0cm","RJpnrj",-22.25,-41.666667,-22.200348,-41.634483,-22.262064,-41.638927,"precisa","UC Protecao Integral","PARNA",14867.28,NA,2009,"RJ","ok NAB digitado! Checado",84,2164,942,"/home/danilo/Documentos/Doutorado/artigo_mestrado/1A.P_MOVER/dados_brutos/ref601_RJ_942.tif"
618,"yes","parcelas","contiguous","100",1,"DBH>=5.0cm&H>500cm","RSvsol",-29.581111,-52.673889,-29.583957,-52.689282,-29.566667,-52.666667,"boa","private","particular_fisica",NA,"2001",2001,"RS","ok NAB digitado! Checado",55,1855,968,"/home/danilo/Documentos/Doutorado/artigo_mestrado/1A.P_MOVER/dados_brutos/ref618_RS_968.tif"
619,"yes","parcelas","contiguous","100",1,"DBH>=5.0cm","RScama",-30.683333,-51.883333,-28.521022,-52.448468,-30.698526,-51.877136,"precisa","private","particular_fisica",NA,"2003",2003,"RS","ok NAB digitado! Checado",69,2236,969,"/home/danilo/Documentos/Doutorado/artigo_mestrado/1A.P_MOVER/dados_brutos/ref619_RS_969.tif"
624,"yes","parcelas","contiguous","100",1,"PBH>=15.0cm","RScach1",-30.016667,-52.783333,-30.206242,-52.98636,-30.006342,-52.776698,"precisa","private","particular",NA,NA,2007,"RS","ok NAB digitado! Checado",30,1547,974,"/home/danilo/Documentos/Doutorado/artigo_mestrado/1A.P_MOVER/dados_brutos/ref624_RS_974.tif"
638,"yes","parcelas","contiguous","100",1,"PBH>=15.0cm","RScach4",-30,-52.8,-30.206242,-52.98636,-29.986589,-52.810887,"precisa","private","particular_fisica",NA,NA,2006,"RS","ok NAB digitado! Checado",49,1096,989,"/home/danilo/Documentos/Doutorado/artigo_mestrado/1A.P_MOVER/dados_brutos/ref638_RS_989.tif"
639,"yes","parcelas","contiguous","100",1,"PBH>=15.0cm","RSfaxi",-27.204,-52.4032,-27.375602,-52.675999,-27.389975,-52.712117,"boa","private","particular_fisica",NA,"2008",2012,"RS","ok NAB digitado! Checado",74,1211,990,"/home/danilo/Documentos/Doutorado/artigo_mestrado/1A.P_MOVER/dados_brutos/ref639_RS_990.tif"
658,"yes","parcelas","contiguous","100",1,"DBH>=5.0cm","RSmaqu4",-29.423,-50.09,-29.633612,-50.209317,-29.708333,-50.15,"boa","private","particular_fisica",NA,"2002",2002,"RS","ok NAB digitado! Checado",85,1531,1017,"/home/danilo/Documentos/Doutorado/artigo_mestrado/1A.P_MOVER/dados_brutos/ref658_RS_1017.tif"
658,"yes","parcelas","contiguous","100",1,"DBH>=5.0cm","RSrioz1",-29.362,-50.223,-29.616396,-50.399956,-29.605556,-50.375,"boa","private","particular_fisica",NA,"2002",2002,"RS","ok NAB digitado! Checado",77,1206,1018,"/home/danilo/Documentos/Doutorado/artigo_mestrado/1A.P_MOVER/dados_brutos/ref658_RS_1018.tif"
663,"yes","parcelas","contiguous","100",1,"PBH>=15.0cm","RScach3",-30.016667,-52.783333,NA,NA,-29.998973,-52.791275,"precisa","private","particular",NA,NA,2007,"RS","ok NAB digitado! Checado",72,1229,1023,"/home/danilo/Documentos/Doutorado/artigo_mestrado/1A.P_MOVER/dados_brutos/ref663_RS_1023.tif"
664,"yes","parcelas","contiguous","100",1,"PBH>=15.0cm","RScach2",-30.016667,-52.783333,-30.206242,-52.98636,-30.001866,-52.795133,"precisa","private","particular",NA,NA,2008,"RS","ok NAB digitado! Checado",48,1904,1024,"/home/danilo/Documentos/Doutorado/artigo_mestrado/1A.P_MOVER/dados_brutos/ref664_RS_1024.tif"
677,"yes","parcelas","contiguous","100",1,"PBH>=15.0cm","RSpet1",-27.286111,-53.859722,-27.241203,-53.892143,-27.230215,-53.858551,"boa","UC Protecao Integral","Parque Estadual",17491,NA,2008,"RS","ok NAB digitado! Checado",70,827,1040,"/home/danilo/Documentos/Doutorado/artigo_mestrado/1A.P_MOVER/dados_brutos/ref677_RS_1040.tif"
678,"yes","parcelas","contiguous","100",1,"PBH>=15.0cm","RSsmar2",-29.633333,-53.9,-29.784866,-53.824766,-29.633261,-53.900305,"boa","private","particular",NA,NA,2007,"RS","ok N digitado! Checado",58,1427,1041,"/home/danilo/Documentos/Doutorado/artigo_mestrado/1A.P_MOVER/dados_brutos/ref678_RS_1041.tif"
684,"yes","parcelas","contiguous","100",1,"DBH>=5.0cm&H>500cm","RSmorr1",-29.358333,-49.976389,-29.338293,-49.954246,-29.358333,-49.976389,"boa","private","particular",NA,"1992",1994,"RS","ok NAB digitado! Checado",112,2822,1047,"/home/danilo/Documentos/Doutorado/artigo_mestrado/1A.P_MOVER/dados_brutos/ref684_RS_1047.tif"
740,"yes","parcelas","contiguous","100",1,"DBH>=5.0cm","RSsetape",-31.45,-52.466667,-29.362545,-51.965201,-31.448282,-52.472604,"boa","private","particular_fisica",NA,"1999",2001,"RS","ok NAB digitado! Checado",45,1733,1123,"/home/danilo/Documentos/Doutorado/artigo_mestrado/1A.P_MOVER/dados_brutos/ref740_RS_1123.tif"
741,"yes","parcelas","contiguous","100",1,"DBH>=4.8cm","RSsini",-29.389444,-52.533333,-29.44481,-52.568927,-29.389832,-52.533104,"precisa","UC Uso Sustentavel","RPPN",221.39,NA,2010,"RS","ok NAB digitado! Checado",69,1024,1124,"/home/danilo/Documentos/Doutorado/artigo_mestrado/1A.P_MOVER/dados_brutos/ref741_RS_1124.tif"
1183,"yes","parcelas","contiguous","100",1,"DBH>=5.0cm","RScamb1",-29.171141,-50.117472,-29.06281,-50.135691,-29.171141,-50.117472,"exata","UC Protecao Integral","PARNA",13141.05,NA,2005,"RS","ok NAB digitado! Checado",42,1178,1928,"/home/danilo/Documentos/Doutorado/artigo_mestrado/1A.P_MOVER/dados_brutos/ref1183_RS_1928.tif"
1340,"yes","parcelas","contiguous/systematic","5",1,"PBH>=15.0cm","RSgaur",-27.549216,-52.129752,NA,NA,NA,NA,"precisa","private","particular",NA,NA,2009,"RS","ok NAB digitado! Checado",84,1540,2177,"/home/danilo/Documentos/Doutorado/artigo_mestrado/1A.P_MOVER/dados_brutos/ref1340_RS_2177.tif"
316,"yes","parcelas","contiguous","16",1,"DBH>=5.0cm&H>300cm","MSband",-19.917778,-54.363889,-19.8052045,-54.2850676,-19.79092,-54.539218,"boa","private_in_APA","particular_fisica",NA,NA,2011,"MS","ok NAB digitado! Checado",82,2039,523,"/home/danilo/Documentos/Doutorado/artigo_mestrado/1A.P_MOVER/dados_brutos/ref316_MS_523.tif"
333,"yes","parcelas","contiguous/systematic","12",1.08,"PBH>=15.0cm","MSlada5",-19.183333,-57.6,-19.7822247,-52.9909826,-19.176084,-57.600755,"exata","private","particular_fisica",NA,"2000",2005,"MS","ok NAB digitado! Checado",56,1719,542,"/home/danilo/Documentos/Doutorado/artigo_mestrado/1A.P_MOVER/dados_brutos/ref333_MS_542.tif"
333,"yes","parcelas","contiguous/systematic","12",1.08,"PBH>=15.0cm","MSlada2",-19.183333,-57.516667,-19.7822247,-52.9909826,-19.179218,-57.524007,"precisa","private","particular_fisica",NA,"2000",2005,"MS","ok NAB digitado! Checado",67,1079,543,"/home/danilo/Documentos/Doutorado/artigo_mestrado/1A.P_MOVER/dados_brutos/ref333_MS_543.tif"
333,"yes","parcelas","contiguous/systematic","12",1.08,"PBH>=15.0cm","MSlada3",-19.166667,-57.583333,-19.7822247,-52.9909826,-19.168016,-57.586853,"exata","private","particular_fisica",NA,"2000",2005,"MS","ok NAB digitado! Checado",73,837,544,"/home/danilo/Documentos/Doutorado/artigo_mestrado/1A.P_MOVER/dados_brutos/ref333_MS_544.tif"
333,"yes","parcelas","contiguous/systematic","12",1.08,"PBH>=15.0cm","MSlada4",-19.183333,-57.566667,-19.7822247,-52.9909826,-19.187839,-57.571457,"exata","private","particular_fisica",NA,"2000",2005,"MS","ok NAB digitado! Checado",48,913,545,"/home/danilo/Documentos/Doutorado/artigo_mestrado/1A.P_MOVER/dados_brutos/ref333_MS_545.tif"
333,"yes","parcelas","contiguous/systematic","12",1.08,"PBH>=15.0cm","MSlada1",-19.1,-57.516667,-19.7822247,-52.9909826,-19.1,-57.516667,"exata","private","particular_fisica",NA,"2000",2005,"MS","ok NAB digitado! Checado",79,1545,546,"/home/danilo/Documentos/Doutorado/artigo_mestrado/1A.P_MOVER/dados_brutos/ref333_MS_546.tif"
1248,"yes","parcelas","contiguous","25",1,"DBH>=4.8cm","GOcaldas",-17.766667,-48.65,-17.709143,-48.64588,-17.782495,-48.674112,"boa","UC Protecao Integral","Parque Estadual",12159,NA,2011,"GO","ok NAB digitado! Checado",98,1051,2016,"/home/danilo/Documentos/Doutorado/artigo_mestrado/1A.P_MOVER/dados_brutos/ref1248_GO_2016.tif"
1292,"yes","parcelas","contiguous","108",1.08,"PBH>=15.0cm","MScoru2",-19.020556,-57.453611,-18.729402,-56.672888,-19.021492,-57.446985,"precisa","private","particular",NA,NA,2005,"MS","ok NAB digitado! Checado",37,695,2106,"/home/danilo/Documentos/Doutorado/artigo_mestrado/1A.P_MOVER/dados_brutos/ref1292_MS_2106.tif"
1420,"yes","parcelas","contiguous","103",1.03,"PBH>=15.0cm","BAlenc4",-12.556606,-41.411605,-12.334222,-41.232355,-12.556606,-41.411605,"precisa","UC Protecao Integral","PARNA",152141.87,NA,2000,"BA","ok NAB digitado! Checado",102,1125,2286,"/home/danilo/Documentos/Doutorado/artigo_mestrado/1A.P_MOVER/dados_brutos/ref1420_BA_2286.tif"
1425,"yes","parcelas","contiguous","50",1,"DBH>=5.0cm","BAuruc",-14.423333,-39.027222,-14.51619,-39.226553,-14.429694,-39.036553,"boa","private_in_APA","particular",14925,"2008",2008,"BA","ok NAB digitado! Checado",406,2444,2296,"/home/danilo/Documentos/Doutorado/artigo_mestrado/1A.P_MOVER/dados_brutos/ref1425_BA_2296.tif"
1426,"yes","parcelas","contiguous","50",1,"DBH>=5.0cm","BAjuss",-15.2,-39.483333,-15.132186,-39.497673,-15.167419,-39.54168,"boa","UC Uso Sustentavel","RPPN",200,"2009",2009,"BA","ok NAB digitado! Checado",244,1364,2297,"/home/danilo/Documentos/Doutorado/artigo_mestrado/1A.P_MOVER/dados_brutos/ref1426_BA_2297.tif"
2570,"yes","parcelas","contiguous","100",1,"PBH>=15.0cm","MSdour",-22.321944,-54.878611,-22.1453153,-54.8383267,-22.285218,-54.906479,"precisa","private",NA,NA,NA,2007,"MS","ok NAB digitado! Checado",80,1046,3876,"/home/danilo/Documentos/Doutorado/artigo_mestrado/1A.P_MOVER/dados_brutos/ref2570_MS_3876.tif"
8,"yes","parcelas","contiguous","100",1,"PBH>=15.0cm","ESsoor",-19.035023,-39.941831,-19.3820921,-40.0288574,-19.016645,-40.122508,"precisa","UC Protecao Integral","REBIO",27858.68,NA,2010,"ES","ok NAB digitado! Checado",256,1519,10,"/home/danilo/Documentos/Doutorado/artigo_mestrado/1A.P_MOVER/dados_brutos/ref8_ES_10.tif"
70,"yes","parcelas","contiguous/systematic","80",2.4,"PBH>=15.7cm","MGlavr3",-21.329167,-44.971667,-21.265411,-45.0392764,-21.333333,-44.983333,"precisa","UC Protecao Integral","Parque Municipal",235,"2001",2004,"MG","ok NAB digitado! Checado",208,4137,81,"/home/danilo/Documentos/Doutorado/artigo_mestrado/1A.P_MOVER/dados_brutos/ref70_MG_81.tif"
76,"yes","parcelas","contiguous","110",1.1,"PBH>=15.0cm","MGuberl1",-18.79,-48.146944,-19.0283339,-48.3316595,-18.7963,-48.1457,"precisa","private","particular_juridica",NA,NA,2010,"MG","ok NAB digitado! Checado",89,1393,87,"/home/danilo/Documentos/Doutorado/artigo_mestrado/1A.P_MOVER/dados_brutos/ref76_MG_87.tif"
82,"yes","parcelas","contiguous","28",1.12,"DBH>=5.0cm","MGlavr6",-21.3,-44.366667,-21.265411,-45.039276,-21.273424,-44.881781,"precisa","private","particular_fisica",NA,"1997",2003,"MG","ok NAB digitado! Checado",139,1666,93,"/home/danilo/Documentos/Doutorado/artigo_mestrado/1A.P_MOVER/dados_brutos/ref82_MG_93.tif"
89,"yes","parcelas","contiguous","25",1,"PBH>=15.0cm","MGuberl3",-18.939722,-48.210833,-19.0283339,-48.3316595,-18.952353,-48.204825,"precisa","private","particular_juridica",NA,NA,2011,"MG","ok NAB digitado! Checado",86,976,102,"/home/danilo/Documentos/Doutorado/artigo_mestrado/1A.P_MOVER/dados_brutos/ref89_MG_102.tif"
100,"yes","parcelas","contiguous","25",1,"PBH>=15.0cm","MGuberl7",-19.154167,-48.138292,-19.0283339,-48.3316595,-19.152134,-48.129227,"precisa","private","particular_fisica",NA,NA,2010,"MG","ok NAB digitado! Checado",73,945,118,"/home/danilo/Documentos/Doutorado/artigo_mestrado/1A.P_MOVER/dados_brutos/ref100_MG_118.tif"
113,"yes","parcelas","contiguous/systematic","104",1.04,"PBH>=15.0cm","MGuberl6",-18.914444,-48.233889,-19.0283339,-48.3316595,-18.91023,-48.228495,"precisa","UC Protecao Integral","Parque Municipal",136.928163,NA,2006,"MG","ok NAB digitado! Checado",79,994,138,"/home/danilo/Documentos/Doutorado/artigo_mestrado/1A.P_MOVER/dados_brutos/ref113_MG_138.tif"
160,"yes","parcelas","contiguous/systematic","25",1,"PBH>=15.0cm","MGubera",-19.674444,-48.034444,-19.5809958,-47.9767611,-19.674444,-48.034444,"boa","private_in_APA","particular_fisica",52746.24,NA,2009,"MG","ok NAB digitado! Checado",90,805,200,"/home/danilo/Documentos/Doutorado/artigo_mestrado/1A.P_MOVER/dados_brutos/ref160_MG_200.tif"
178,"yes","parcelas","contiguous/systematic","25",1,"PBH>=15.0cm","MGipia1",-18.716667,-49.933333,-18.6986601,-49.9322128,-18.724213,-49.937903,"boa","private","particular_fisica",NA,"2007",2009,"MG","ok NAB digitado! Checado",50,837,243,"/home/danilo/Documentos/Doutorado/artigo_mestrado/1A.P_MOVER/dados_brutos/ref178_MG_243.tif"
284,"yes","parcelas","contiguous","25",1,"PBH>=15.0cm","MGuberl5",-18.914444,-48.233889,-19.0283339,-48.3316595,-18.909831,-48.228314,"precisa","UC Protecao Integral","Parque Municipal",136.928163,NA,2012,"MG","ok N digitado! Checado",69,958,391,"/home/danilo/Documentos/Doutorado/artigo_mestrado/1A.P_MOVER/dados_brutos/ref284_MG_391.tif"
285,"yes","parcelas","contiguous","48",1.45,"DBH>5.0cm","MGlavr7",-21.340259,-45.025923,-21.265411,-45.0392764,NA,NA,"boa",NA,NA,NA,NA,2005,"MG","ok N digitado! Checado mas com problemas",120,1836,392,"/home/danilo/Documentos/Doutorado/artigo_mestrado/1A.P_MOVER/dados_brutos/ref285_MG_392.tif"
347,"yes","parcelas","contiguous","100",1,"DBH>=5.0cm","PRtiba1",-24.516667,-50.416667,-25.13075,-51.781711,-24.500579,-50.418457,"boa","private_in_APA","particular_fisica",392363,NA,1998,"PR","ok NAB digitado! Checado",123,1490,571,"/home/danilo/Documentos/Doutorado/artigo_mestrado/1A.P_MOVER/dados_brutos/ref347_PR_571.tif"
348,"yes","parcelas","contiguous","100",1,"DBH>=5.0cm","PRsapo",-24.016667,-50.683333,-23.87509,-50.604462,-23.925934,-50.749635,"boa","private","particular_fisica",NA,NA,1995,"PR","ok NAB digitado! Checado",124,1560,572,"/home/danilo/Documentos/Doutorado/artigo_mestrado/1A.P_MOVER/dados_brutos/ref348_PR_572.tif"
355,"yes","parcelas","contiguous","100",1,"DBH>=5.0cm","PRtele",-24.333333,-50.616667,-24.238455,-50.541883,-24.326798,-50.597634,"boa","private","particular_fisica",NA,NA,1996,"PR","ok NAB digitado! Checado",106,1041,580,"/home/danilo/Documentos/Doutorado/artigo_mestrado/1A.P_MOVER/dados_brutos/ref355_PR_580.tif"
454,"yes","parcelas","contiguous/systematic","7",1.05,"DBH>5.0cm","PRdiam2",-22.566667,-52.816667,-22.6351,-52.892541,-22.613124,-52.861959,"precisa","UC Protecao Integral","Estacao Ecologica",1449.48,NA,2004,"PR","ok NAB digitado! Checado",84,1146,732,"/home/danilo/Documentos/Doutorado/artigo_mestrado/1A.P_MOVER/dados_brutos/ref454_PR_732.tif"
462,"yes","parcelas","contiguous","100",1,"PBH>=15.0cm","PRvent",-24.143083,-50.308417,-24.176659,-50.245148,-24.143083,-50.308417,"boa","private","particular_juridica",NA,NA,2006,"PR","ok NAB digitado! Checado",106,1270,743,"/home/danilo/Documentos/Doutorado/artigo_mestrado/1A.P_MOVER/dados_brutos/ref462_PR_743.tif"
813,"yes","parcelas","contiguous","100",1,"DBH>=5.0cm","SCside",-28.6,-49.55,-28.583934,-49.526799,-28.597833,-49.574428,"exata","private","particular_juridica",NA,NA,2009,"SC","ok NAB digitado! Checado",107,1715,1230,"/home/danilo/Documentos/Doutorado/artigo_mestrado/1A.P_MOVER/dados_brutos/ref813_SC_1230.tif"
832,"yes","parcelas","contiguous","50",1,"DBH>=5.0cm","SCorle",-28.358889,-49.291389,-27.195793,-51.407992,-28.306022,-49.317888,"precisa","private","particular",NA,"1993",1995,"SC","ok NAB digitado! Checado",116,1944,1251,"/home/danilo/Documentos/Doutorado/artigo_mestrado/1A.P_MOVER/dados_brutos/ref832_SC_1251.tif"
842,"yes","parcelas","contiguous","100",1,"DBH>=5.0cm","SCilho",-26.783333,-48.95,-26.859123,-48.857221,-26.809054,-48.936193,"boa","UC Protecao Integral","Parque Municipal",750,"2002",2002,"SC","ok N digitado! Checado",136,1260,1266,"/home/danilo/Documentos/Doutorado/artigo_mestrado/1A.P_MOVER/dados_brutos/ref842_SC_1266.tif"
847,"yes","parcelas","contiguous","100",1,"DBH>=5.0cm","SCilho2",-26.807046,-48.941732,-26.859123,-48.857221,-26.807046,-48.941732,"boa","UC Protecao Integral","Parque Municipal",750,NA,2001,"SC","ok NAB digitado! Checado",182,1832,1271,"/home/danilo/Documentos/Doutorado/artigo_mestrado/1A.P_MOVER/dados_brutos/ref847_SC_1271.tif"
848,"yes","parcelas","contiguous","50",1,"DBH>=5.0cm","SCvolta1",-26.066667,-48.633333,-26.07888,-48.655291,-26.071833,-48.670767,"boa","UC Uso Sustentavel","RPPN",1186,NA,1996,"SC","ok NAB digitado! Checado",53,1660,1272,"/home/danilo/Documentos/Doutorado/artigo_mestrado/1A.P_MOVER/dados_brutos/ref848_SC_1272.tif"
858,"yes","parcelas","contiguous","100",1,"DBH>=5.0cm","SCcric1",-28.8,-49.416667,-28.716358,-49.38048,-28.690159,-49.432465,"precisa","UC Protecao Integral","Parque Municipal",7.7,"2006",2006,"SC","ok NAB digitado! Checado",137,1412,1285,"/home/danilo/Documentos/Doutorado/artigo_mestrado/1A.P_MOVER/dados_brutos/ref858_SC_1285.tif"
870,"yes","parcelas","contiguous","50",1,"DBH>=5.0cm","SCvolta2",-26.094722,-48.644444,-26.07888,-48.655291,-26.093114,-48.643972,"precisa","UC Uso Sustentavel","RPPN",1186,NA,2000,"SC","ok NAB digitado! Checado",78,2059,1324,"/home/danilo/Documentos/Doutorado/artigo_mestrado/1A.P_MOVER/dados_brutos/ref870_SC_1324.tif"
873,"yes","parcelas","contiguous","100",1,"DBH>=5.0cm","SCtimbe1",-28.733333,-49.833333,-28.805827,-49.865801,-28.733333,-49.833333,"boa","private","particular_juridica",NA,"2010",2010,"SC","ok NAB digitado! Checado",149,3161,1327,"/home/danilo/Documentos/Doutorado/artigo_mestrado/1A.P_MOVER/dados_brutos/ref873_SC_1327.tif"
873,"yes","parcelas","contiguous","100",1,"DBH>=5.0cm","SCarar",-29.033333,-49.516667,-28.942622,-49.472849,-28.953219,-49.416187,"boa","private","particular_juridica",NA,"2010",2010,"SC","ok NAB digitado! Checado",26,2034,1328,"/home/danilo/Documentos/Doutorado/artigo_mestrado/1A.P_MOVER/dados_brutos/ref873_SC_1328.tif"
888,"yes","parcelas","contiguous","100",1,"PBH>=15.0cm","SPpesmE",-23.334722,-44.832222,-23.379257,-45.024089,-23.334167,-44.832222,"exata","UC Protecao Integral","Parque Estadual",315390,"2011",2011,"SP","ok NAB digitado! Checado",142,1240,1349,"/home/danilo/Documentos/Doutorado/artigo_mestrado/1A.P_MOVER/dados_brutos/ref888_SP_1349.tif"
893,"yes","parcelas","contiguous","88",1.98,"DBH>=5.0cm","SPpei1",-24.233333,-48.066667,-24.273839,-47.935139,-24.233333,-48.066667,"precisa","UC Protecao Integral","Parque Estadual",48000,"2001",2004,"SP","ok NAB digitado! Checado",172,3078,1356,"/home/danilo/Documentos/Doutorado/artigo_mestrado/1A.P_MOVER/dados_brutos/ref893_SP_1356.tif"
922,"yes","parcelas","contiguous","100",1,"PBH>=15.0cm","SPpesmG",-23.373889,-45.080833,-23.379257,-45.024089,-23.373889,-45.080833,"exata","UC Protecao Integral","Parque Estadual",315390,"2011",2011,"SP","ok NAB digitado! Checado",150,1496,1420,"/home/danilo/Documentos/Doutorado/artigo_mestrado/1A.P_MOVER/dados_brutos/ref922_SP_1420.tif"
922,"yes","parcelas","contiguous","100",1,"PBH>=15.0cm","SPpesmI",-23.366944,-45.083611,-23.379257,-45.024089,-23.366944,-45.083611,"exata","UC Protecao Integral","Parque Estadual",315390,"2011",2011,"SP","ok NAB digitado! Checado",201,1993,1421,"/home/danilo/Documentos/Doutorado/artigo_mestrado/1A.P_MOVER/dados_brutos/ref922_SP_1421.tif"
923,"yes","parcelas","contiguous","100",1,"PBH>=15.0cm","SPpesmJ",-23.366389,-45.083889,-23.379257,-45.024089,-23.366389,-45.083889,"exata","UC Protecao Integral","Parque Estadual",315390,"2011",2011,"SP","ok NAB digitado! Checado",205,1816,1422,"/home/danilo/Documentos/Doutorado/artigo_mestrado/1A.P_MOVER/dados_brutos/ref923_SP_1422.tif"
926,"yes","parcelas","contiguous","100",1,"PBH>=15.0cm","SPpesmD",-23.335833,-44.833333,-23.379257,-45.024089,NA,NA,"exata","UC Protecao Integral","Parque Estadual",315390,NA,2011,"SP","ok NAB digitado! Checado",154,1284,1426,"/home/danilo/Documentos/Doutorado/artigo_mestrado/1A.P_MOVER/dados_brutos/ref926_SP_1426.tif"
928,"yes","parcelas","contiguous","100",1,"PBH>=15.0cm","SPpesmF",-23.381389,-45.078889,-23.379257,-45.024089,-23.381389,-45.078889,"exata","private","particular",NA,"2007",2011,"SP","ok NAB digitado! Checado",102,1379,1428,"/home/danilo/Documentos/Doutorado/artigo_mestrado/1A.P_MOVER/dados_brutos/ref928_SP_1428.tif"
934,"yes (Email)","parcelas","contiguous","100",1,"PBH>=15.0cm","SPpesmB",-23.336944,-44.835556,-23.379257,-45.024089,-23.336944,-44.835556,"exata","UC Protecao Integral","Parque Estadual",315390,"2011",2011,"SP","ok N digitado! Checado",132,1076,1435,"/home/danilo/Documentos/Doutorado/artigo_mestrado/1A.P_MOVER/dados_brutos/ref934_SP_1435.tif"
934,"yes (Email)","parcelas","contiguous","100",1,"PBH>=15.0cm","SPpesmA",-23.356111,-44.850833,-23.379257,-45.024089,-23.356232,-44.851572,"exata","UC Protecao Integral","Parque Estadual",315390,"2011",2011,"SP","ok N digitado! Checado",84,1670,1436,"/home/danilo/Documentos/Doutorado/artigo_mestrado/1A.P_MOVER/dados_brutos/ref934_SP_1436.tif"
935,"yes","parcelas","contiguous","100",1,"PBH>=15.0cm","SPpesmK",-23.325278,-45.068611,-23.239942,-45.253756,-23.325278,-45.068611,"exata","UC Protecao Integral","Parque Estadual",315390,"2011",2011,"SP","ok NAB digitado! Checado",170,1852,1437,"/home/danilo/Documentos/Doutorado/artigo_mestrado/1A.P_MOVER/dados_brutos/ref935_SP_1437.tif"
935,"yes","parcelas","contiguous","100",1,"PBH>=15.0cm","SPpesmN",-23.343333,-45.072778,-23.239942,-45.253756,-23.343333,-45.072778,"exata","UC Protecao Integral","Parque Estadual",315390,"2011",2011,"SP","ok NAB digitado! Checado",145,1436,1438,"/home/danilo/Documentos/Doutorado/artigo_mestrado/1A.P_MOVER/dados_brutos/ref935_SP_1438.tif"
936,"yes","parcelas","contiguous","256",10.24,"PBH>=15.0cm","SPpecb1",-24.181361,-47.925,-24.273839,-47.935139,-24.181361,-47.925,"exata","UC Protecao Integral","Parque Estadual",37644.36,NA,2006,"SP","ok NAB digitado! Checado",224,11529,1439,"/home/danilo/Documentos/Doutorado/artigo_mestrado/1A.P_MOVER/dados_brutos/ref936_SP_1439.tif"
936,"yes","parcelas","contiguous","256",10.24,"PBH>=15.0cm","SPeec1",-22.411236,-49.701147,-22.319826,-49.577418,-22.411236,-49.701147,"exata","UC Protecao Integral","Estacao Ecologica",2178.84,NA,2006,"SP","ok NAB digitado! Checado",144,12105,1440,"/home/danilo/Documentos/Doutorado/artigo_mestrado/1A.P_MOVER/dados_brutos/ref936_SP_1440.tif"
936,"yes","parcelas","contiguous","256",10.24,"PBH>=15.0cm","SPeea1",-22.595556,-50.378056,-22.601091,-50.420749,-22.595556,-50.378056,"exata","UC Protecao Integral","Estacao Ecologica",1760.64,NA,2006,"SP","ok NAB digitado! Checado",115,21928,1441,"/home/danilo/Documentos/Doutorado/artigo_mestrado/1A.P_MOVER/dados_brutos/ref936_SP_1441.tif"
986,"yes","parcelas","contiguous","1",1,"PBH>=15.0cm","SPcamp1",-22.829167,-47.109167,-22.883895,-47.044123,-22.821541,-47.109603,"boa","UC Protecao Integral","Reserva Municipal",252,NA,2009,"SP","ok NAB digitado! Checado",112,1081,1505,"/home/danilo/Documentos/Doutorado/artigo_mestrado/1A.P_MOVER/dados_brutos/ref986_SP_1505.tif"
1059,"yes","parcelas","contiguous","100",1,"PBH>=15.0cm","SPpesm6",-23.381734,-44.840059,-23.379257,-45.024089,-23.358326,-44.85182,"boa","UC Protecao Integral","Parque Estadual",315390,NA,2001,"SP","ok NAB digitado! Checado",88,1892,1682,"/home/danilo/Documentos/Doutorado/artigo_mestrado/1A.P_MOVER/dados_brutos/ref1059_SP_1682.tif"
1107,"yes","parcelas","contiguous/systematic","50",1,"DBH>=5.0cm","SPigua1",-24.5,-47.25,-24.545957,-47.473188,-24.549215,-47.237847,"precisa","UC Protecao Integral","Estacao Ecologica",79240,"2000",2000,"SP","ok NAB digitado! Checado",173,1826,1683,"/home/danilo/Documentos/Doutorado/artigo_mestrado/1A.P_MOVER/dados_brutos/ref1107_SP_1683.tif"
1115,"yes","parcelas","contiguous","100",1,"PBH>=15.0cm","SPpesmC",-23.541667,-45.058333,-23.379257,-45.024089,-23.336182,-44.83494,"exata","UC Protecao Integral","Parque Estadual",315390,NA,2011,"SP","ok NAB digitado! Checado",130,1121,1693,"/home/danilo/Documentos/Doutorado/artigo_mestrado/1A.P_MOVER/dados_brutos/ref1115_SP_1693.tif"
1124,"yes","parcelas","contiguous","4",1,"PBH>=15.0cm","SPcara1",-23.634877,-45.53154,-23.640035,-45.488318,-23.634877,-45.53154,"precisa","UC Protecao Integral","Parque Estadual",315390,"2012",2013,"SP","ok NAB digitado! Checado",178,2166,1703,"/home/danilo/Documentos/Doutorado/artigo_mestrado/1A.P_MOVER/dados_brutos/ref1124_SP_1703.tif"
1124,"yes","parcelas","contiguous","4",1,"PBH>=15.0cm","SPcara3",-23.588799,-45.545569,-23.640035,-45.488318,-23.588799,-45.545569,"precisa","UC Protecao Integral","Parque Estadual",315390,"2012",2013,"SP","ok NAB digitado! Checado",140,1735,1704,"/home/danilo/Documentos/Doutorado/artigo_mestrado/1A.P_MOVER/dados_brutos/ref1124_SP_1704.tif"
1159,"yes","parcelas","contiguous","50",1,"PBH>=15.0cm","PRrico1",-22.7936,-53.3175,-22.833422,-53.313603,-22.791283,-53.320944,"exata","private_in_APA","particular",1005188.39,NA,2012,"PR","ok NAB digitado! Checado",65,1019,1776,"/home/danilo/Documentos/Doutorado/artigo_mestrado/1A.P_MOVER/dados_brutos/ref1159_PR_1776.tif"
1327,"yes","parcelas","contiguous","72",1.08,"PBH>=15.0cm","PRdiam3",-22.591389,-52.898611,-22.6351,-52.892541,-22.59916,-52.885719,"boa","UC Protecao Integral","Estacao Ecologica",1449.48,NA,2009,"PR","ok NAB digitado! Checado",76,1130,2157,"/home/danilo/Documentos/Doutorado/artigo_mestrado/1A.P_MOVER/dados_brutos/ref1327_PR_2157.tif"
1496,"yes","parcelas","contiguous","50",1,"DBH>=5.0cm","PEsvfer",-7.616667,-35.466667,-7.60392683,-35.4903129,-7.621603,-35.467489,"boa","private","particular",NA,NA,2008,"PE","ok NAB digitado! Checado",120,1390,2392,"/home/danilo/Documentos/Doutorado/artigo_mestrado/1A.P_MOVER/dados_brutos/ref1496_PE_2392.tif"
1496,"yes","parcelas","contiguous","50",1,"DBH>=5.0cm","PEalia",-7.633333,-35.233333,-7.60297379,-35.1929482,-7.638642,-35.242461,"boa","private","particular",NA,NA,2008,"PE","ok NAB digitado! Checado",79,649,2393,"/home/danilo/Documentos/Doutorado/artigo_mestrado/1A.P_MOVER/dados_brutos/ref1496_PE_2393.tif"
1501,"yes","parcelas","contiguous","50",1,"DBH>=5.0cm","PEcabo2",-8.3,-34.966667,-8.27944,-35.030422,-8.316121,-34.984865,"precisa","UC Protecao Integral","Reserva Ecologica",288.9860617,"1997",1997,"PE","ok NAB digitado! Checado",79,1575,2398,"/home/danilo/Documentos/Doutorado/artigo_mestrado/1A.P_MOVER/dados_brutos/ref1501_PE_2398.tif"
1542,"yes","parcelas","contiguous","50",1,"DBH>=5.0cm","PEbrejo",-8.183333,-36.383333,-8.075741,-36.281338,-8.198594,-36.404881,"precisa","private","particular",NA,"2000",2008,"PE","ok NAB digitado! Checado",62,1553,2440,"/home/danilo/Documentos/Doutorado/artigo_mestrado/1A.P_MOVER/dados_brutos/ref1542_PE_2440.tif"
1564,"yes","parcelas","contiguous","10",1,"PBH>=15.0cm","PEcaru1",-8.3,-36,-8.17998305,-36.0164779,-8.368331,-36.029308,"exata","UC Protecao Integral","Parque Municipal",369.1181311,NA,2000,"PE","ok NAB digitado! Checado",92,1424,2463,"/home/danilo/Documentos/Doutorado/artigo_mestrado/1A.P_MOVER/dados_brutos/ref1564_PE_2463.tif"
1617,"yes","parcelas","contiguous","50",1,"DBH>=5.0cm","PEmata2",-8.05,-35.15,-8.02365884,-35.1034114,-8.059292,-35.178495,"boa","UC Protecao Integral","Estacao Ecologica",590,"2004",2004,"PE","ok NAB digitado! Checado",88,1145,2549,"/home/danilo/Documentos/Doutorado/artigo_mestrado/1A.P_MOVER/dados_brutos/ref1617_PE_2549.tif"
2561,"yes","parcelas","contiguous","100",1,"DBH>=5.0cm","SPeec4",-22.381833,-49.683361,-22.319826,-49.577418,-22.381833,-49.683361,"exata","UC Protecao Integral","Estacao Ecologica",2178.84,"1999",2002,"SP","ok NAB digitado! Checado",86,1218,3863,"/home/danilo/Documentos/Doutorado/artigo_mestrado/1A.P_MOVER/dados_brutos/ref2561_SP_3863.tif"
2561,"yes","parcelas","contiguous","100",1,"DBH>=5.0cm","SPeec5",-22.408783,-49.688616,-22.3198258,-49.577418,NA,NA,"boa","UC Protecao Integral","Estacao Ecologica",2178.84,"1999",2002,"SP","ok NAB digitado! Checado",76,1111,3864,"/home/danilo/Documentos/Doutorado/artigo_mestrado/1A.P_MOVER/dados_brutos/ref2561_SP_3864.tif"
2572,"yes","parcelas","contiguous","100",1,"DBH>=5.0cm","SCside1",-28.57,-49.404722,-28.5839339,-49.5267988,-28.584006,-49.405765,"precisa","private","particular",NA,"2005",2005,"SC","ok NAB digitado! Checado",115,1417,3878,"/home/danilo/Documentos/Doutorado/artigo_mestrado/1A.P_MOVER/dados_brutos/ref2572_SC_3878.tif"
2686,"yes","parcelas","contiguous","66",1,"PBH>=15.0cm","PRrico3",-22.753889,-53.258889,-22.833422,-53.313603,-22.753889,-53.258889,"precisa","UC Uso Sustentavel","APA",1005188.39,NA,2003,"PR","ok N digitado! Checado",45,1162,4170,"/home/danilo/Documentos/Doutorado/artigo_mestrado/1A.P_MOVER/dados_brutos/ref2686_PR_4170.tif"
2714,"yes","parcelas","contiguous","100",1,"DBH>=5.0cm","PRanto4",-25.299293,-48.67982,-25.297895,-48.724509,NA,NA,"exata","UC Uso Sustentavel","RPPN",4292,"2009",2009,"PR","ok NAB digitado! Checado",129,1922,4206,"/home/danilo/Documentos/Doutorado/artigo_mestrado/1A.P_MOVER/dados_brutos/ref2714_PR_4206.tif"
2714,"yes","parcelas","contiguous","100",1,"DBH>=5.0cm","PRanto5",-25.294674,-48.679013,-25.297895,-48.724509,NA,NA,"exata","UC Uso Sustentavel","RPPN",4292,"2009",2009,"PR","ok NAB digitado! Checado",128,1762,4207,"/home/danilo/Documentos/Doutorado/artigo_mestrado/1A.P_MOVER/dados_brutos/ref2714_PR_4207.tif"
2714,"yes","parcelas","contiguous","100",1,"DBH>=5.0cm","PRanto6",-25.297045,-48.679278,-25.297895,-48.724509,NA,NA,"exata","UC Uso Sustentavel","RPPN",4292,"2009",2009,"PR","ok NAB digitado! Checado",132,1672,4208,"/home/danilo/Documentos/Doutorado/artigo_mestrado/1A.P_MOVER/dados_brutos/ref2714_PR_4208.tif"
2714,"yes","parcelas","contiguous","100",1,"DBH>=5.0cm","PRanto7",-25.297261,-48.686422,-25.297895,-48.724509,NA,NA,"exata","UC Uso Sustentavel","RPPN",4292,"2009",2009,"PR","ok NAB digitado! Checado",83,1983,4209,"/home/danilo/Documentos/Doutorado/artigo_mestrado/1A.P_MOVER/dados_brutos/ref2714_PR_4209.tif"
2714,"yes","parcelas","contiguous","100",1,"DBH>=5.0cm","PRanto8",-25.323942,-48.659079,-25.297895,-48.724509,NA,NA,"exata","UC Uso Sustentavel","RPPN",4292,"2009",2009,"PR","ok NAB digitado! Checado",143,1524,4210,"/home/danilo/Documentos/Doutorado/artigo_mestrado/1A.P_MOVER/dados_brutos/ref2714_PR_4210.tif"
2714,"yes","parcelas","contiguous","100",1,"DBH>=5.0cm","PRanto9",-25.329704,-48.673616,-25.297895,-48.724509,NA,NA,"exata","UC Uso Sustentavel","RPPN",4292,"2009",2009,"PR","ok NAB digitado! Checado",140,1604,4211,"/home/danilo/Documentos/Doutorado/artigo_mestrado/1A.P_MOVER/dados_brutos/ref2714_PR_4211.tif"
2714,"yes","parcelas","contiguous","100",1,"DBH>=5.0cm","PRanto10",-25.32901,-48.676854,-25.297895,-48.724509,NA,NA,"exata","UC Uso Sustentavel","RPPN",4292,"2009",2009,"PR","ok NAB digitado! Checado",136,1967,4212,"/home/danilo/Documentos/Doutorado/artigo_mestrado/1A.P_MOVER/dados_brutos/ref2714_PR_4212.tif"
2714,"yes","parcelas","contiguous","100",1,"DBH>=5.0cm","PRanto11",-25.32063,-48.676698,-25.297895,-48.724509,NA,NA,"exata","UC Uso Sustentavel","RPPN",4292,"2009",2009,"PR","ok NAB digitado! Checado",102,1746,4213,"/home/danilo/Documentos/Doutorado/artigo_mestrado/1A.P_MOVER/dados_brutos/ref2714_PR_4213.tif"
2714,"yes","parcelas","contiguous","100",1,"DBH>=5.0cm","PRanto12",-25.298638,-48.651975,-25.297895,-48.724509,NA,NA,"exata","UC Uso Sustentavel","RPPN",4292,"2009",2009,"PR","ok NAB digitado! Checado",155,1471,4214,"/home/danilo/Documentos/Doutorado/artigo_mestrado/1A.P_MOVER/dados_brutos/ref2714_PR_4214.tif"
2714,"yes","parcelas","contiguous","100",1,"DBH>=5.0cm","PRanto13",-25.297587,-48.65779,-25.297895,-48.724509,NA,NA,"exata","UC Uso Sustentavel","RPPN",4292,"2009",2009,"PR","ok NAB digitado! Checado",133,1685,4215,"/home/danilo/Documentos/Doutorado/artigo_mestrado/1A.P_MOVER/dados_brutos/ref2714_PR_4215.tif"
2714,"yes","parcelas","contiguous","100",1,"DBH>=5.0cm","PRanto14",-25.303997,-48.659992,-25.297895,-48.724509,-25.304265,-48.659379,"exata","UC Uso Sustentavel","RPPN",4292,"2009",2009,"PR","ok NAB digitado! Checado",73,2134,4216,"/home/danilo/Documentos/Doutorado/artigo_mestrado/1A.P_MOVER/dados_brutos/ref2714_PR_4216.tif"
2714,"yes","parcelas","contiguous","100",1,"DBH>=5.0cm","PRanto15",-25.297556,-48.667555,-25.297895,-48.724509,NA,NA,"exata","UC Uso Sustentavel","RPPN",4292,"2009",2009,"PR","ok NAB digitado! Checado",143,1658,4217,"/home/danilo/Documentos/Doutorado/artigo_mestrado/1A.P_MOVER/dados_brutos/ref2714_PR_4217.tif"
2715,"yes","parcelas","contiguous","100",1,"DBH>=5.0cm","SCside4",-28.592222,-49.518333,-28.583934,-49.526799,NA,NA,"exata",NA,NA,NA,"2008",2008,"SC","ok NAB digitado! Checado",100,1423,4218,"/home/danilo/Documentos/Doutorado/artigo_mestrado/1A.P_MOVER/dados_brutos/ref2715_SC_4218.tif"
2812,"yes","parcelas","contiguous/systematic","120",1.2,"PBH>=15.0cm","SPcana1",-24.523,-47.523,-25.020133,-48.021785,-24.887337,-47.933022,"exata","private_in_APA","particular",202307,"2010",2010,"SP","ok N digitado! Checado",161,2313,4452,"/home/danilo/Documentos/Doutorado/artigo_mestrado/1A.P_MOVER/dados_brutos/ref2812_SP_4452.tif"
2817,"yes","parcelas","contiguous","115",1.15,"DBH>=5.0cm","MGpara5",-17.457474,-46.547922,-17.174167,-46.884145,-17.457474,-46.547922,"precisa","private","particular_fisica",NA,"2010",2010,"MG","ok NAB digitado! Checado",59,661,4467,"/home/danilo/Documentos/Doutorado/artigo_mestrado/1A.P_MOVER/dados_brutos/ref2817_MG_4467.tif"
